{
    "type": "FeatureCollection",
    "features": [{
            "type": "Feature",
            "geometry": {
                "type": "Point",
                "coordinates": [
                    121.521188,
                    23.601927
                ]
            },
            "properties": {
                "id": "0145080011",
                "name": "衛生福利部花蓮醫院豐濱原住民分院",
                "masksLeft": 243,
                "childMasksLeft": 42
            }
        },
        {
            "type": "Feature",
            "geometry": {
                "type": "Point",
                "coordinates": [
                    121.577316,
                    25.049887
                ]
            },
            "properties": {
                "id": "2101010013",
                "name": "松山健康服務中心",
                "masksLeft": 3,
                "childMasksLeft": 0
            }
        },
        {
            "type": "Feature",
            "geometry": {
                "type": "Point",
                "coordinates": [
                    121.544274,
                    25.02159
                ]
            },
            "properties": {
                "id": "2101020019",
                "name": "大安健康服務中心",
                "masksLeft": 0,
                "childMasksLeft": 605
            }
        },
        {
            "type": "Feature",
            "geometry": {
                "type": "Point",
                "coordinates": [
                    121.51627,
                    25.065797
                ]
            },
            "properties": {
                "id": "2101090011",
                "name": "大同健康服務中心",
                "masksLeft": 3,
                "childMasksLeft": 0
            }
        },
        {
            "type": "Feature",
            "geometry": {
                "type": "Point",
                "coordinates": [
                    121.533505,
                    25.064393
                ]
            },
            "properties": {
                "id": "2101100227",
                "name": "中山健康服務中心",
                "masksLeft": 3,
                "childMasksLeft": 2
            }
        },
        {
            "type": "Feature",
            "geometry": {
                "type": "Point",
                "coordinates": [
                    121.589129,
                    25.069242
                ]
            },
            "properties": {
                "id": "2101110027",
                "name": "內湖健康服務中心",
                "masksLeft": 3,
                "childMasksLeft": 4
            }
        },
        {
            "type": "Feature",
            "geometry": {
                "type": "Point",
                "coordinates": [
                    121.606864,
                    25.054574
                ]
            },
            "properties": {
                "id": "2101120014",
                "name": "南港健康服務中心",
                "masksLeft": 0,
                "childMasksLeft": 27
            }
        },
        {
            "type": "Feature",
            "geometry": {
                "type": "Point",
                "coordinates": [
                    121.51963,
                    25.092702
                ]
            },
            "properties": {
                "id": "2101150012",
                "name": "士林健康服務中心",
                "masksLeft": 20,
                "childMasksLeft": 171
            }
        },
        {
            "type": "Feature",
            "geometry": {
                "type": "Point",
                "coordinates": [
                    121.566905,
                    25.033694
                ]
            },
            "properties": {
                "id": "2101170050",
                "name": "信義健康服務中心",
                "masksLeft": 6,
                "childMasksLeft": 4
            }
        },
        {
            "type": "Feature",
            "geometry": {
                "type": "Point",
                "coordinates": [
                    121.516013,
                    25.030439
                ]
            },
            "properties": {
                "id": "2101180038",
                "name": "中正健康服務中心",
                "masksLeft": 3,
                "childMasksLeft": 8
            }
        },
        {
            "type": "Feature",
            "geometry": {
                "type": "Point",
                "coordinates": [
                    121.497641,
                    25.023207
                ]
            },
            "properties": {
                "id": "2101191068",
                "name": "萬華健康服務中心",
                "masksLeft": 0,
                "childMasksLeft": 410
            }
        },
        {
            "type": "Feature",
            "geometry": {
                "type": "Point",
                "coordinates": [
                    121.570083,
                    24.989649
                ]
            },
            "properties": {
                "id": "2101200017",
                "name": "政大(文山健康服務中心)",
                "masksLeft": 4,
                "childMasksLeft": 4
            }
        },
        {
            "type": "Feature",
            "geometry": {
                "type": "Point",
                "coordinates": [
                    120.675868,
                    24.14111
                ]
            },
            "properties": {
                "id": "2303240013",
                "name": "臺中市中西區衛生所",
                "masksLeft": 324,
                "childMasksLeft": 556
            }
        },
        {
            "type": "Feature",
            "geometry": {
                "type": "Point",
                "coordinates": [
                    121.759254,
                    25.140804
                ]
            },
            "properties": {
                "id": "2311010010",
                "name": "基隆市中正區衛生所",
                "masksLeft": 744,
                "childMasksLeft": 750
            }
        },
        {
            "type": "Feature",
            "geometry": {
                "type": "Point",
                "coordinates": [
                    121.716501,
                    25.097665
                ]
            },
            "properties": {
                "id": "2311020016",
                "name": "基隆市七堵區衛生所",
                "masksLeft": 144,
                "childMasksLeft": 3
            }
        },
        {
            "type": "Feature",
            "geometry": {
                "type": "Point",
                "coordinates": [
                    121.737972,
                    25.095177
                ]
            },
            "properties": {
                "id": "2311030012",
                "name": "基隆市暖暖區衛生所",
                "masksLeft": 975,
                "childMasksLeft": 413
            }
        },
        {
            "type": "Feature",
            "geometry": {
                "type": "Point",
                "coordinates": [
                    121.736843,
                    25.125273
                ]
            },
            "properties": {
                "id": "2311040018",
                "name": "基隆市仁愛區衛生所",
                "masksLeft": 1161,
                "childMasksLeft": 1173
            }
        },
        {
            "type": "Feature",
            "geometry": {
                "type": "Point",
                "coordinates": [
                    121.740784,
                    25.137209
                ]
            },
            "properties": {
                "id": "2311050014",
                "name": "基隆市中山區衛生所",
                "masksLeft": 1650,
                "childMasksLeft": 265
            }
        },
        {
            "type": "Feature",
            "geometry": {
                "type": "Point",
                "coordinates": [
                    121.723326,
                    25.121058
                ]
            },
            "properties": {
                "id": "2311060010",
                "name": "基隆市安樂區衛生所",
                "masksLeft": 414,
                "childMasksLeft": 0
            }
        },
        {
            "type": "Feature",
            "geometry": {
                "type": "Point",
                "coordinates": [
                    121.751905,
                    25.128543
                ]
            },
            "properties": {
                "id": "2311070016",
                "name": "基隆市信義區衛生所",
                "masksLeft": 367,
                "childMasksLeft": 1756
            }
        },
        {
            "type": "Feature",
            "geometry": {
                "type": "Point",
                "coordinates": [
                    120.973675,
                    24.805482
                ]
            },
            "properties": {
                "id": "2312010014",
                "name": "新竹市東區衛生所",
                "masksLeft": 423,
                "childMasksLeft": 20
            }
        },
        {
            "type": "Feature",
            "geometry": {
                "type": "Point",
                "coordinates": [
                    120.942218,
                    24.793986
                ]
            },
            "properties": {
                "id": "2312050018",
                "name": "新竹市香山衛生所",
                "masksLeft": 765,
                "childMasksLeft": 240
            }
        },
        {
            "type": "Feature",
            "geometry": {
                "type": "Point",
                "coordinates": [
                    120.687871,
                    24.13346
                ]
            },
            "properties": {
                "id": "2317020010",
                "name": "臺中市東區衛生所",
                "masksLeft": 27,
                "childMasksLeft": 0
            }
        },
        {
            "type": "Feature",
            "geometry": {
                "type": "Point",
                "coordinates": [
                    120.682321,
                    24.16597
                ]
            },
            "properties": {
                "id": "2317050018",
                "name": "臺中市北區衛生所",
                "masksLeft": 3657,
                "childMasksLeft": 578
            }
        },
        {
            "type": "Feature",
            "geometry": {
                "type": "Point",
                "coordinates": [
                    120.640332,
                    24.178969
                ]
            },
            "properties": {
                "id": "2317060014",
                "name": "臺中市西屯區衛生所",
                "masksLeft": 894,
                "childMasksLeft": 386
            }
        },
        {
            "type": "Feature",
            "geometry": {
                "type": "Point",
                "coordinates": [
                    120.643705,
                    24.134508
                ]
            },
            "properties": {
                "id": "2317070010",
                "name": "臺中市南屯區衛生所",
                "masksLeft": 58,
                "childMasksLeft": 3
            }
        },
        {
            "type": "Feature",
            "geometry": {
                "type": "Point",
                "coordinates": [
                    120.719452,
                    24.176258
                ]
            },
            "properties": {
                "id": "2317080016",
                "name": "台中市北屯區軍功衛生所",
                "masksLeft": 536,
                "childMasksLeft": 90
            }
        },
        {
            "type": "Feature",
            "geometry": {
                "type": "Point",
                "coordinates": [
                    120.680628,
                    24.192759
                ]
            },
            "properties": {
                "id": "2317081022",
                "name": "台中市北屯區四民衛生所",
                "masksLeft": 1053,
                "childMasksLeft": 110
            }
        },
        {
            "type": "Feature",
            "geometry": {
                "type": "Point",
                "coordinates": [
                    120.221962,
                    22.984952
                ]
            },
            "properties": {
                "id": "2321010013",
                "name": "臺南市東區衛生所",
                "masksLeft": 1726,
                "childMasksLeft": 177
            }
        },
        {
            "type": "Feature",
            "geometry": {
                "type": "Point",
                "coordinates": [
                    120.187914,
                    22.960673
                ]
            },
            "properties": {
                "id": "2321020019",
                "name": "臺南市南區衛生所",
                "masksLeft": 0,
                "childMasksLeft": 266
            }
        },
        {
            "type": "Feature",
            "geometry": {
                "type": "Point",
                "coordinates": [
                    120.192577,
                    22.994974
                ]
            },
            "properties": {
                "id": "2321030015",
                "name": "臺南市中西區衛生所",
                "masksLeft": 1002,
                "childMasksLeft": 249
            }
        },
        {
            "type": "Feature",
            "geometry": {
                "type": "Point",
                "coordinates": [
                    120.210894,
                    23.000178
                ]
            },
            "properties": {
                "id": "2321040011",
                "name": "臺南巿北區衛生所",
                "masksLeft": 1063,
                "childMasksLeft": 973
            }
        },
        {
            "type": "Feature",
            "geometry": {
                "type": "Point",
                "coordinates": [
                    120.1758,
                    23.049859
                ]
            },
            "properties": {
                "id": "2321060013",
                "name": "台南市安南區衛生所",
                "masksLeft": 4,
                "childMasksLeft": 5
            }
        },
        {
            "type": "Feature",
            "geometry": {
                "type": "Point",
                "coordinates": [
                    120.466267,
                    23.476836
                ]
            },
            "properties": {
                "id": "2322010017",
                "name": "嘉義市東區衛生所",
                "masksLeft": 652,
                "childMasksLeft": 640
            }
        },
        {
            "type": "Feature",
            "geometry": {
                "type": "Point",
                "coordinates": [
                    120.431071,
                    23.479986
                ]
            },
            "properties": {
                "id": "2322020013",
                "name": "嘉義市西區衛生所",
                "masksLeft": 567,
                "childMasksLeft": 60
            }
        },
        {
            "type": "Feature",
            "geometry": {
                "type": "Point",
                "coordinates": [
                    121.428716,
                    24.996303
                ]
            },
            "properties": {
                "id": "2331070012",
                "name": "新北市樹林區衛生所",
                "masksLeft": 0,
                "childMasksLeft": 8
            }
        },
        {
            "type": "Feature",
            "geometry": {
                "type": "Point",
                "coordinates": [
                    121.352541,
                    24.950595
                ]
            },
            "properties": {
                "id": "2331080018",
                "name": "新北市鶯歌區衛生所",
                "masksLeft": 5,
                "childMasksLeft": 5
            }
        },
        {
            "type": "Feature",
            "geometry": {
                "type": "Point",
                "coordinates": [
                    121.376185,
                    24.928435
                ]
            },
            "properties": {
                "id": "2331090014",
                "name": "新北市三峽區衛生所",
                "masksLeft": 426,
                "childMasksLeft": 17
            }
        },
        {
            "type": "Feature",
            "geometry": {
                "type": "Point",
                "coordinates": [
                    121.809103,
                    25.107472
                ]
            },
            "properties": {
                "id": "2331120017",
                "name": "新北市瑞芳區衛生所",
                "masksLeft": 33,
                "childMasksLeft": 177
            }
        },
        {
            "type": "Feature",
            "geometry": {
                "type": "Point",
                "coordinates": [
                    121.43353,
                    25.056411
                ]
            },
            "properties": {
                "id": "2331160011",
                "name": "新北市泰山區衛生所",
                "masksLeft": 114,
                "childMasksLeft": 8
            }
        },
        {
            "type": "Feature",
            "geometry": {
                "type": "Point",
                "coordinates": [
                    121.612572,
                    25.000924
                ]
            },
            "properties": {
                "id": "2331180013",
                "name": "新北市深坑區衛生所",
                "masksLeft": 0,
                "childMasksLeft": 2
            }
        },
        {
            "type": "Feature",
            "geometry": {
                "type": "Point",
                "coordinates": [
                    121.658113,
                    24.991473
                ]
            },
            "properties": {
                "id": "2331190019",
                "name": "新北市石碇區衛生所",
                "masksLeft": 0,
                "childMasksLeft": 4
            }
        },
        {
            "type": "Feature",
            "geometry": {
                "type": "Point",
                "coordinates": [
                    121.711566,
                    24.93587
                ]
            },
            "properties": {
                "id": "2331200010",
                "name": "新北市坪林區衛生所",
                "masksLeft": 380,
                "childMasksLeft": 244
            }
        },
        {
            "type": "Feature",
            "geometry": {
                "type": "Point",
                "coordinates": [
                    121.565995,
                    25.290184
                ]
            },
            "properties": {
                "id": "2331220012",
                "name": "新北市石門區衛生所",
                "masksLeft": 99,
                "childMasksLeft": 825
            }
        },
        {
            "type": "Feature",
            "geometry": {
                "type": "Point",
                "coordinates": [
                    121.399996,
                    25.147051
                ]
            },
            "properties": {
                "id": "2331230018",
                "name": "新北市八里區衛生所",
                "masksLeft": 45,
                "childMasksLeft": 5
            }
        },
        {
            "type": "Feature",
            "geometry": {
                "type": "Point",
                "coordinates": [
                    121.737185,
                    25.024684
                ]
            },
            "properties": {
                "id": "2331240014",
                "name": "新北市平溪區衛生所",
                "masksLeft": 0,
                "childMasksLeft": 141
            }
        },
        {
            "type": "Feature",
            "geometry": {
                "type": "Point",
                "coordinates": [
                    121.8663,
                    25.038019
                ]
            },
            "properties": {
                "id": "2331250010",
                "name": "新北市雙溪區衛生所",
                "masksLeft": 0,
                "childMasksLeft": 575
            }
        },
        {
            "type": "Feature",
            "geometry": {
                "type": "Point",
                "coordinates": [
                    121.927504,
                    25.055024
                ]
            },
            "properties": {
                "id": "2331260016",
                "name": "新北市貢寮區衛生所",
                "masksLeft": 4,
                "childMasksLeft": 0
            }
        },
        {
            "type": "Feature",
            "geometry": {
                "type": "Point",
                "coordinates": [
                    121.641182,
                    25.220466
                ]
            },
            "properties": {
                "id": "2331270012",
                "name": "新北市金山區衛生所",
                "masksLeft": 0,
                "childMasksLeft": 301
            }
        },
        {
            "type": "Feature",
            "geometry": {
                "type": "Point",
                "coordinates": [
                    121.547995,
                    24.871946
                ]
            },
            "properties": {
                "id": "2331290014",
                "name": "新北市烏來區衛生所",
                "masksLeft": 0,
                "childMasksLeft": 220
            }
        },
        {
            "type": "Feature",
            "geometry": {
                "type": "Point",
                "coordinates": [
                    121.285498,
                    24.8845
                ]
            },
            "properties": {
                "id": "2332030012",
                "name": "桃園市大溪區衛生所",
                "masksLeft": 1421,
                "childMasksLeft": 748
            }
        },
        {
            "type": "Feature",
            "geometry": {
                "type": "Point",
                "coordinates": [
                    121.149726,
                    24.896935
                ]
            },
            "properties": {
                "id": "2332040018",
                "name": "桃園市楊梅區衛生所",
                "masksLeft": 0,
                "childMasksLeft": 5
            }
        },
        {
            "type": "Feature",
            "geometry": {
                "type": "Point",
                "coordinates": [
                    121.19534,
                    25.06347
                ]
            },
            "properties": {
                "id": "2332060010",
                "name": "桃園市大園區衛生所",
                "masksLeft": 1350,
                "childMasksLeft": 70
            }
        },
        {
            "type": "Feature",
            "geometry": {
                "type": "Point",
                "coordinates": [
                    121.298562,
                    24.94753
                ]
            },
            "properties": {
                "id": "2332080012",
                "name": "桃園市八德區衛生所",
                "masksLeft": 8,
                "childMasksLeft": 0
            }
        },
        {
            "type": "Feature",
            "geometry": {
                "type": "Point",
                "coordinates": [
                    121.216821,
                    24.864305
                ]
            },
            "properties": {
                "id": "2332090018",
                "name": "桃園市龍潭區衛生所",
                "masksLeft": 1,
                "childMasksLeft": 30
            }
        },
        {
            "type": "Feature",
            "geometry": {
                "type": "Point",
                "coordinates": [
                    121.106583,
                    24.972546
                ]
            },
            "properties": {
                "id": "2332110015",
                "name": "桃園市新屋區衛生所",
                "masksLeft": 646,
                "childMasksLeft": 124
            }
        },
        {
            "type": "Feature",
            "geometry": {
                "type": "Point",
                "coordinates": [
                    121.083371,
                    25.02768
                ]
            },
            "properties": {
                "id": "2332120011",
                "name": "桃園市觀音區衛生所",
                "masksLeft": 2,
                "childMasksLeft": 69
            }
        },
        {
            "type": "Feature",
            "geometry": {
                "type": "Point",
                "coordinates": [
                    121.350999,
                    24.815113
                ]
            },
            "properties": {
                "id": "2332130017",
                "name": "桃園市復興區衛生所",
                "masksLeft": 5,
                "childMasksLeft": 5
            }
        },
        {
            "type": "Feature",
            "geometry": {
                "type": "Point",
                "coordinates": [
                    121.172635,
                    24.791748
                ]
            },
            "properties": {
                "id": "2333010014",
                "name": "新竹縣關西鎮衛生所",
                "masksLeft": 0,
                "childMasksLeft": 316
            }
        },
        {
            "type": "Feature",
            "geometry": {
                "type": "Point",
                "coordinates": [
                    121.071671,
                    24.827944
                ]
            },
            "properties": {
                "id": "2333020010",
                "name": "新竹縣新埔鎮衛生所",
                "masksLeft": 1161,
                "childMasksLeft": 40
            }
        },
        {
            "type": "Feature",
            "geometry": {
                "type": "Point",
                "coordinates": [
                    121.048145,
                    24.900949
                ]
            },
            "properties": {
                "id": "2333060014",
                "name": "新竹縣湖口鄉衛生所",
                "masksLeft": 1083,
                "childMasksLeft": 10
            }
        },
        {
            "type": "Feature",
            "geometry": {
                "type": "Point",
                "coordinates": [
                    120.988119,
                    24.899925
                ]
            },
            "properties": {
                "id": "2333080016",
                "name": "新竹縣新豐鄉衛生所",
                "masksLeft": 996,
                "childMasksLeft": 16
            }
        },
        {
            "type": "Feature",
            "geometry": {
                "type": "Point",
                "coordinates": [
                    121.077628,
                    24.777457
                ]
            },
            "properties": {
                "id": "2333090012",
                "name": "新竹縣芎林鄉衛生所",
                "masksLeft": 432,
                "childMasksLeft": 0
            }
        },
        {
            "type": "Feature",
            "geometry": {
                "type": "Point",
                "coordinates": [
                    120.994847,
                    24.766798
                ]
            },
            "properties": {
                "id": "2333100013",
                "name": "新竹縣寶山鄉衛生所",
                "masksLeft": 1,
                "childMasksLeft": 2
            }
        },
        {
            "type": "Feature",
            "geometry": {
                "type": "Point",
                "coordinates": [
                    121.055265,
                    24.700406
                ]
            },
            "properties": {
                "id": "2333110019",
                "name": "新竹縣北埔鄉衛生所",
                "masksLeft": 3,
                "childMasksLeft": 8
            }
        },
        {
            "type": "Feature",
            "geometry": {
                "type": "Point",
                "coordinates": [
                    121.021415,
                    24.688502
                ]
            },
            "properties": {
                "id": "2333120015",
                "name": "新竹縣峨眉鄉衛生所",
                "masksLeft": 1716,
                "childMasksLeft": 252
            }
        },
        {
            "type": "Feature",
            "geometry": {
                "type": "Point",
                "coordinates": [
                    121.202364,
                    24.705749
                ]
            },
            "properties": {
                "id": "2333130011",
                "name": "新竹縣尖石鄉衛生所",
                "masksLeft": 0,
                "childMasksLeft": 60
            }
        },
        {
            "type": "Feature",
            "geometry": {
                "type": "Point",
                "coordinates": [
                    121.119313,
                    24.631681
                ]
            },
            "properties": {
                "id": "2333140017",
                "name": "新竹縣五峰鄉衛生所",
                "masksLeft": 214,
                "childMasksLeft": 491
            }
        },
        {
            "type": "Feature",
            "geometry": {
                "type": "Point",
                "coordinates": [
                    121.752388,
                    24.745452
                ]
            },
            "properties": {
                "id": "2334010018",
                "name": "宜蘭縣宜蘭市衛生所",
                "masksLeft": 1045,
                "childMasksLeft": 193
            }
        },
        {
            "type": "Feature",
            "geometry": {
                "type": "Point",
                "coordinates": [
                    121.766968,
                    24.677545
                ]
            },
            "properties": {
                "id": "2334020014",
                "name": "宜蘭縣羅東鎮衛生所",
                "masksLeft": 1452,
                "childMasksLeft": 809
            }
        },
        {
            "type": "Feature",
            "geometry": {
                "type": "Point",
                "coordinates": [
                    121.841546,
                    24.593771
                ]
            },
            "properties": {
                "id": "2334030010",
                "name": "宜蘭縣蘇澳鎮衛生所",
                "masksLeft": 2257,
                "childMasksLeft": 571
            }
        },
        {
            "type": "Feature",
            "geometry": {
                "type": "Point",
                "coordinates": [
                    121.820482,
                    24.856739
                ]
            },
            "properties": {
                "id": "2334040016",
                "name": "宜蘭縣頭城鎮衛生所",
                "masksLeft": 6,
                "childMasksLeft": 217
            }
        },
        {
            "type": "Feature",
            "geometry": {
                "type": "Point",
                "coordinates": [
                    121.769543,
                    24.820891
                ]
            },
            "properties": {
                "id": "2334050012",
                "name": "宜蘭縣礁溪鄉衛生所",
                "masksLeft": 1069,
                "childMasksLeft": 243
            }
        },
        {
            "type": "Feature",
            "geometry": {
                "type": "Point",
                "coordinates": [
                    121.786635,
                    24.747035
                ]
            },
            "properties": {
                "id": "2334060018",
                "name": "宜蘭縣壯圍鄉衛生所",
                "masksLeft": 1331,
                "childMasksLeft": 543
            }
        },
        {
            "type": "Feature",
            "geometry": {
                "type": "Point",
                "coordinates": [
                    121.724409,
                    24.74428
                ]
            },
            "properties": {
                "id": "2334070014",
                "name": "宜蘭縣員山鄉衛生所",
                "masksLeft": 367,
                "childMasksLeft": 454
            }
        },
        {
            "type": "Feature",
            "geometry": {
                "type": "Point",
                "coordinates": [
                    121.791525,
                    24.636104
                ]
            },
            "properties": {
                "id": "2334081026",
                "name": "宜蘭縣冬山鄉衛生所",
                "masksLeft": 0,
                "childMasksLeft": 370
            }
        },
        {
            "type": "Feature",
            "geometry": {
                "type": "Point",
                "coordinates": [
                    121.798907,
                    24.684951
                ]
            },
            "properties": {
                "id": "2334090016",
                "name": "宜蘭縣五結鄉衛生所",
                "masksLeft": 1044,
                "childMasksLeft": 250
            }
        },
        {
            "type": "Feature",
            "geometry": {
                "type": "Point",
                "coordinates": [
                    121.651575,
                    24.666144
                ]
            },
            "properties": {
                "id": "2334100017",
                "name": "宜蘭縣三星鄉衛生所",
                "masksLeft": 0,
                "childMasksLeft": 2
            }
        },
        {
            "type": "Feature",
            "geometry": {
                "type": "Point",
                "coordinates": [
                    121.608899,
                    24.677991
                ]
            },
            "properties": {
                "id": "2334110013",
                "name": "宜蘭縣大同鄉衛生所",
                "masksLeft": 333,
                "childMasksLeft": 55
            }
        },
        {
            "type": "Feature",
            "geometry": {
                "type": "Point",
                "coordinates": [
                    120.824946,
                    24.565932
                ]
            },
            "properties": {
                "id": "2335010012",
                "name": "苗栗縣苗栗市衛生所",
                "masksLeft": 0,
                "childMasksLeft": 3
            }
        },
        {
            "type": "Feature",
            "geometry": {
                "type": "Point",
                "coordinates": [
                    120.652704,
                    24.439525
                ]
            },
            "properties": {
                "id": "2335020018",
                "name": "苗栗縣苑裡鎮衛生所",
                "masksLeft": 1269,
                "childMasksLeft": 105
            }
        },
        {
            "type": "Feature",
            "geometry": {
                "type": "Point",
                "coordinates": [
                    120.789629,
                    24.611704
                ]
            },
            "properties": {
                "id": "2335060012",
                "name": "苗栗縣後龍鎮衛生所",
                "masksLeft": 4,
                "childMasksLeft": 6
            }
        },
        {
            "type": "Feature",
            "geometry": {
                "type": "Point",
                "coordinates": [
                    120.865999,
                    24.424544
                ]
            },
            "properties": {
                "id": "2335080014",
                "name": "苗栗縣大湖鄉衛生所",
                "masksLeft": 1,
                "childMasksLeft": 5
            }
        },
        {
            "type": "Feature",
            "geometry": {
                "type": "Point",
                "coordinates": [
                    121.000006,
                    24.597356
                ]
            },
            "properties": {
                "id": "2335110017",
                "name": "苗栗縣南庄鄉衛生所",
                "masksLeft": 9,
                "childMasksLeft": 0
            }
        },
        {
            "type": "Feature",
            "geometry": {
                "type": "Point",
                "coordinates": [
                    120.850115,
                    24.576058
                ]
            },
            "properties": {
                "id": "2335120013",
                "name": "苗栗縣頭屋鄉衛生所",
                "masksLeft": 4,
                "childMasksLeft": 7
            }
        },
        {
            "type": "Feature",
            "geometry": {
                "type": "Point",
                "coordinates": [
                    120.7707,
                    24.413396
                ]
            },
            "properties": {
                "id": "2335130019",
                "name": "苗栗縣三義鄉衛生所",
                "masksLeft": 36,
                "childMasksLeft": 253
            }
        },
        {
            "type": "Feature",
            "geometry": {
                "type": "Point",
                "coordinates": [
                    120.757706,
                    24.557895
                ]
            },
            "properties": {
                "id": "2335140015",
                "name": "苗栗縣西湖鄉衛生所",
                "masksLeft": 6,
                "childMasksLeft": 5
            }
        },
        {
            "type": "Feature",
            "geometry": {
                "type": "Point",
                "coordinates": [
                    120.956563,
                    24.652888
                ]
            },
            "properties": {
                "id": "2335160017",
                "name": "苗栗縣三灣鄉衛生所",
                "masksLeft": 0,
                "childMasksLeft": 5
            }
        },
        {
            "type": "Feature",
            "geometry": {
                "type": "Point",
                "coordinates": [
                    120.920104,
                    24.539554
                ]
            },
            "properties": {
                "id": "2335170013",
                "name": "苗栗縣獅潭鄉衛生所",
                "masksLeft": 1,
                "childMasksLeft": 57
            }
        },
        {
            "type": "Feature",
            "geometry": {
                "type": "Point",
                "coordinates": [
                    120.714316,
                    24.248507
                ]
            },
            "properties": {
                "id": "2336010016",
                "name": "臺中市豐原區衛生所",
                "masksLeft": 477,
                "childMasksLeft": 5
            }
        },
        {
            "type": "Feature",
            "geometry": {
                "type": "Point",
                "coordinates": [
                    120.82832,
                    24.257664
                ]
            },
            "properties": {
                "id": "2336020012",
                "name": "臺中市東勢區衛生所",
                "masksLeft": 243,
                "childMasksLeft": 893
            }
        },
        {
            "type": "Feature",
            "geometry": {
                "type": "Point",
                "coordinates": [
                    120.624371,
                    24.350297
                ]
            },
            "properties": {
                "id": "2336030018",
                "name": "臺中市大甲區衛生所",
                "masksLeft": 243,
                "childMasksLeft": 10
            }
        },
        {
            "type": "Feature",
            "geometry": {
                "type": "Point",
                "coordinates": [
                    120.574639,
                    24.266548
                ]
            },
            "properties": {
                "id": "2336040014",
                "name": "臺中市清水區衛生所",
                "masksLeft": 720,
                "childMasksLeft": 0
            }
        },
        {
            "type": "Feature",
            "geometry": {
                "type": "Point",
                "coordinates": [
                    120.561978,
                    24.236582
                ]
            },
            "properties": {
                "id": "2336050010",
                "name": "臺中市沙鹿區衛生所",
                "masksLeft": 1311,
                "childMasksLeft": 60
            }
        },
        {
            "type": "Feature",
            "geometry": {
                "type": "Point",
                "coordinates": [
                    120.531988,
                    24.254861
                ]
            },
            "properties": {
                "id": "2336060016",
                "name": "臺中市梧棲區衛生所",
                "masksLeft": 504,
                "childMasksLeft": 40
            }
        },
        {
            "type": "Feature",
            "geometry": {
                "type": "Point",
                "coordinates": [
                    120.710342,
                    24.30512
                ]
            },
            "properties": {
                "id": "2336070012",
                "name": "臺中市后里區衛生所",
                "masksLeft": 27,
                "childMasksLeft": 5
            }
        },
        {
            "type": "Feature",
            "geometry": {
                "type": "Point",
                "coordinates": [
                    120.662868,
                    24.258196
                ]
            },
            "properties": {
                "id": "2336080018",
                "name": "臺中市神岡區衛生所",
                "masksLeft": 0,
                "childMasksLeft": 5
            }
        },
        {
            "type": "Feature",
            "geometry": {
                "type": "Point",
                "coordinates": [
                    120.646939,
                    24.224993
                ]
            },
            "properties": {
                "id": "2336100015",
                "name": "臺中市大雅區衛生所",
                "masksLeft": 774,
                "childMasksLeft": 10
            }
        },
        {
            "type": "Feature",
            "geometry": {
                "type": "Point",
                "coordinates": [
                    120.809109,
                    24.2406
                ]
            },
            "properties": {
                "id": "2336110011",
                "name": "臺中市新社區衛生所",
                "masksLeft": 739,
                "childMasksLeft": 473
            }
        },
        {
            "type": "Feature",
            "geometry": {
                "type": "Point",
                "coordinates": [
                    120.777602,
                    24.276028
                ]
            },
            "properties": {
                "id": "2336120017",
                "name": "臺中市石岡區衛生所",
                "masksLeft": 531,
                "childMasksLeft": 1020
            }
        },
        {
            "type": "Feature",
            "geometry": {
                "type": "Point",
                "coordinates": [
                    120.652148,
                    24.333115
                ]
            },
            "properties": {
                "id": "2336130013",
                "name": "臺中市外埔區衛生所",
                "masksLeft": 1122,
                "childMasksLeft": 240
            }
        },
        {
            "type": "Feature",
            "geometry": {
                "type": "Point",
                "coordinates": [
                    120.586303,
                    24.346167
                ]
            },
            "properties": {
                "id": "2336140019",
                "name": "臺中市大安區衛生所",
                "masksLeft": 603,
                "childMasksLeft": 388
            }
        },
        {
            "type": "Feature",
            "geometry": {
                "type": "Point",
                "coordinates": [
                    120.624454,
                    24.105111
                ]
            },
            "properties": {
                "id": "2336150015",
                "name": "臺中市烏日區衛生所",
                "masksLeft": 765,
                "childMasksLeft": 178
            }
        },
        {
            "type": "Feature",
            "geometry": {
                "type": "Point",
                "coordinates": [
                    120.544821,
                    24.155093
                ]
            },
            "properties": {
                "id": "2336160011",
                "name": "臺中市大肚區衛生所",
                "masksLeft": 480,
                "childMasksLeft": 0
            }
        },
        {
            "type": "Feature",
            "geometry": {
                "type": "Point",
                "coordinates": [
                    120.545725,
                    24.191702
                ]
            },
            "properties": {
                "id": "2336170017",
                "name": "臺中市龍井區衛生所",
                "masksLeft": 711,
                "childMasksLeft": 10
            }
        },
        {
            "type": "Feature",
            "geometry": {
                "type": "Point",
                "coordinates": [
                    120.700803,
                    24.060818
                ]
            },
            "properties": {
                "id": "2336180013",
                "name": "台中市霧峰區衛生所",
                "masksLeft": 1566,
                "childMasksLeft": 340
            }
        },
        {
            "type": "Feature",
            "geometry": {
                "type": "Point",
                "coordinates": [
                    120.731333,
                    24.142016
                ]
            },
            "properties": {
                "id": "2336190019",
                "name": "臺中市太平區衛生所",
                "masksLeft": 690,
                "childMasksLeft": 509
            }
        },
        {
            "type": "Feature",
            "geometry": {
                "type": "Point",
                "coordinates": [
                    120.679111,
                    24.097805
                ]
            },
            "properties": {
                "id": "2336200010",
                "name": "臺中市大里區衛生所",
                "masksLeft": 24,
                "childMasksLeft": 13
            }
        },
        {
            "type": "Feature",
            "geometry": {
                "type": "Point",
                "coordinates": [
                    120.888514,
                    24.174131
                ]
            },
            "properties": {
                "id": "2336210025",
                "name": "臺中市和平區衛生所",
                "masksLeft": 785,
                "childMasksLeft": 750
            }
        },
        {
            "type": "Feature",
            "geometry": {
                "type": "Point",
                "coordinates": [
                    121.255135,
                    24.254368
                ]
            },
            "properties": {
                "id": "2336210034",
                "name": "臺中市和平區梨山衛生所",
                "masksLeft": 1,
                "childMasksLeft": 133
            }
        },
        {
            "type": "Feature",
            "geometry": {
                "type": "Point",
                "coordinates": [
                    120.546214,
                    24.072986
                ]
            },
            "properties": {
                "id": "2337010010",
                "name": "彰化縣彰化市南西北區衛生所",
                "masksLeft": 1283,
                "childMasksLeft": 300
            }
        },
        {
            "type": "Feature",
            "geometry": {
                "type": "Point",
                "coordinates": [
                    120.586452,
                    24.081832
                ]
            },
            "properties": {
                "id": "2337010029",
                "name": "彰化縣彰化市東區衛生所",
                "masksLeft": 1403,
                "childMasksLeft": 703
            }
        },
        {
            "type": "Feature",
            "geometry": {
                "type": "Point",
                "coordinates": [
                    120.435325,
                    24.058521
                ]
            },
            "properties": {
                "id": "2337020016",
                "name": "彰化縣鹿港鎮衛生所",
                "masksLeft": 1371,
                "childMasksLeft": 158
            }
        },
        {
            "type": "Feature",
            "geometry": {
                "type": "Point",
                "coordinates": [
                    120.499311,
                    24.110927
                ]
            },
            "properties": {
                "id": "2337030012",
                "name": "彰化縣和美鎮衛生所",
                "masksLeft": 1235,
                "childMasksLeft": 32
            }
        },
        {
            "type": "Feature",
            "geometry": {
                "type": "Point",
                "coordinates": [
                    120.525013,
                    23.875038
                ]
            },
            "properties": {
                "id": "2337040018",
                "name": "彰化縣北斗鎮衛生所",
                "masksLeft": 1652,
                "childMasksLeft": 283
            }
        },
        {
            "type": "Feature",
            "geometry": {
                "type": "Point",
                "coordinates": [
                    120.572438,
                    23.962069
                ]
            },
            "properties": {
                "id": "2337050014",
                "name": "彰化縣員林市衛生所",
                "masksLeft": 1251,
                "childMasksLeft": 324
            }
        },
        {
            "type": "Feature",
            "geometry": {
                "type": "Point",
                "coordinates": [
                    120.483324,
                    23.965766
                ]
            },
            "properties": {
                "id": "2337060010",
                "name": "彰化縣溪湖鎮衛生所",
                "masksLeft": 1396,
                "childMasksLeft": 462
            }
        },
        {
            "type": "Feature",
            "geometry": {
                "type": "Point",
                "coordinates": [
                    120.580532,
                    23.861576
                ]
            },
            "properties": {
                "id": "2337070016",
                "name": "彰化縣田中鎮衛生所",
                "masksLeft": 5869,
                "childMasksLeft": 585
            }
        },
        {
            "type": "Feature",
            "geometry": {
                "type": "Point",
                "coordinates": [
                    120.372802,
                    23.899388
                ]
            },
            "properties": {
                "id": "2337080012",
                "name": "彰化縣二林鎮衛生所",
                "masksLeft": 2970,
                "childMasksLeft": 2
            }
        },
        {
            "type": "Feature",
            "geometry": {
                "type": "Point",
                "coordinates": [
                    120.471231,
                    24.130744
                ]
            },
            "properties": {
                "id": "2337090018",
                "name": "彰化縣線西鄉衛生所",
                "masksLeft": 1016,
                "childMasksLeft": 194
            }
        },
        {
            "type": "Feature",
            "geometry": {
                "type": "Point",
                "coordinates": [
                    120.485576,
                    24.158994
                ]
            },
            "properties": {
                "id": "2337100019",
                "name": "彰化縣伸港鄉衛生所",
                "masksLeft": 1438,
                "childMasksLeft": 103
            }
        },
        {
            "type": "Feature",
            "geometry": {
                "type": "Point",
                "coordinates": [
                    120.427986,
                    24.047779
                ]
            },
            "properties": {
                "id": "2337110015",
                "name": "彰化縣福興鄉衛生所",
                "masksLeft": 1422,
                "childMasksLeft": 320
            }
        },
        {
            "type": "Feature",
            "geometry": {
                "type": "Point",
                "coordinates": [
                    120.503275,
                    24.035363
                ]
            },
            "properties": {
                "id": "2337120020",
                "name": "彰化縣秀水鄉衛生所",
                "masksLeft": 1592,
                "childMasksLeft": 105
            }
        },
        {
            "type": "Feature",
            "geometry": {
                "type": "Point",
                "coordinates": [
                    120.548716,
                    24.028295
                ]
            },
            "properties": {
                "id": "2337130017",
                "name": "彰化縣花壇鄉衛生所",
                "masksLeft": 1149,
                "childMasksLeft": 647
            }
        },
        {
            "type": "Feature",
            "geometry": {
                "type": "Point",
                "coordinates": [
                    120.630553,
                    24.014093
                ]
            },
            "properties": {
                "id": "2337140013",
                "name": "彰化縣芬園鄉衛生所",
                "masksLeft": 1532,
                "childMasksLeft": 196
            }
        },
        {
            "type": "Feature",
            "geometry": {
                "type": "Point",
                "coordinates": [
                    120.546839,
                    23.993486
                ]
            },
            "properties": {
                "id": "2337150019",
                "name": "彰化縣大村鄉衛生所",
                "masksLeft": 1452,
                "childMasksLeft": 320
            }
        },
        {
            "type": "Feature",
            "geometry": {
                "type": "Point",
                "coordinates": [
                    120.463231,
                    24.000339
                ]
            },
            "properties": {
                "id": "2337160015",
                "name": "彰化縣埔鹽鄉衛生所",
                "masksLeft": 1800,
                "childMasksLeft": 447
            }
        },
        {
            "type": "Feature",
            "geometry": {
                "type": "Point",
                "coordinates": [
                    120.543859,
                    23.952928
                ]
            },
            "properties": {
                "id": "2337170011",
                "name": "彰化縣埔心鄉衛生所",
                "masksLeft": 0,
                "childMasksLeft": 337
            }
        },
        {
            "type": "Feature",
            "geometry": {
                "type": "Point",
                "coordinates": [
                    120.547656,
                    23.925033
                ]
            },
            "properties": {
                "id": "2337180017",
                "name": "彰化縣永靖鄉衛生所",
                "masksLeft": 1224,
                "childMasksLeft": 180
            }
        },
        {
            "type": "Feature",
            "geometry": {
                "type": "Point",
                "coordinates": [
                    120.586148,
                    23.902072
                ]
            },
            "properties": {
                "id": "2337190013",
                "name": "彰化縣社頭鄉衛生所",
                "masksLeft": 1077,
                "childMasksLeft": 524
            }
        },
        {
            "type": "Feature",
            "geometry": {
                "type": "Point",
                "coordinates": [
                    120.615436,
                    23.811892
                ]
            },
            "properties": {
                "id": "2337200014",
                "name": "彰化縣二水鄉衛生所",
                "masksLeft": 3800,
                "childMasksLeft": 556
            }
        },
        {
            "type": "Feature",
            "geometry": {
                "type": "Point",
                "coordinates": [
                    120.532901,
                    23.889995
                ]
            },
            "properties": {
                "id": "2337210010",
                "name": "彰化縣田尾鄉衛生所",
                "masksLeft": 7,
                "childMasksLeft": 0
            }
        },
        {
            "type": "Feature",
            "geometry": {
                "type": "Point",
                "coordinates": [
                    120.457256,
                    23.894869
                ]
            },
            "properties": {
                "id": "2337220016",
                "name": "彰化縣埤頭鄉衛生所",
                "masksLeft": 1398,
                "childMasksLeft": 113
            }
        },
        {
            "type": "Feature",
            "geometry": {
                "type": "Point",
                "coordinates": [
                    120.320541,
                    23.925058
                ]
            },
            "properties": {
                "id": "2337230012",
                "name": "彰化縣芳苑鄉衛生所",
                "masksLeft": 2353,
                "childMasksLeft": 496
            }
        },
        {
            "type": "Feature",
            "geometry": {
                "type": "Point",
                "coordinates": [
                    120.320674,
                    23.853349
                ]
            },
            "properties": {
                "id": "2337240018",
                "name": "彰化縣大城鄉衛生所",
                "masksLeft": 1404,
                "childMasksLeft": 784
            }
        },
        {
            "type": "Feature",
            "geometry": {
                "type": "Point",
                "coordinates": [
                    120.42816,
                    23.860478
                ]
            },
            "properties": {
                "id": "2337250014",
                "name": "彰化縣竹塘鄉衛生所",
                "masksLeft": 3702,
                "childMasksLeft": 1358
            }
        },
        {
            "type": "Feature",
            "geometry": {
                "type": "Point",
                "coordinates": [
                    120.494048,
                    23.854687
                ]
            },
            "properties": {
                "id": "2337260010",
                "name": "彰化縣溪州鄉衛生所",
                "masksLeft": 1224,
                "childMasksLeft": 704
            }
        },
        {
            "type": "Feature",
            "geometry": {
                "type": "Point",
                "coordinates": [
                    120.968586,
                    23.967123
                ]
            },
            "properties": {
                "id": "2338020010",
                "name": "南投縣埔里鎮衛生所",
                "masksLeft": 1149,
                "childMasksLeft": 689
            }
        },
        {
            "type": "Feature",
            "geometry": {
                "type": "Point",
                "coordinates": [
                    120.680774,
                    23.973354
                ]
            },
            "properties": {
                "id": "2338030016",
                "name": "南投縣草屯鎮衛生所",
                "masksLeft": 1404,
                "childMasksLeft": 126
            }
        },
        {
            "type": "Feature",
            "geometry": {
                "type": "Point",
                "coordinates": [
                    120.672476,
                    23.7595
                ]
            },
            "properties": {
                "id": "2338040012",
                "name": "南投縣竹山鎮衛生所",
                "masksLeft": 5787,
                "childMasksLeft": 1094
            }
        },
        {
            "type": "Feature",
            "geometry": {
                "type": "Point",
                "coordinates": [
                    120.786584,
                    23.828821
                ]
            },
            "properties": {
                "id": "2338050018",
                "name": "南投縣集集鎮衛生所",
                "masksLeft": 289,
                "childMasksLeft": 25
            }
        },
        {
            "type": "Feature",
            "geometry": {
                "type": "Point",
                "coordinates": [
                    120.702839,
                    23.838465
                ]
            },
            "properties": {
                "id": "2338060014",
                "name": "南投縣名間鄉衛生所",
                "masksLeft": 0,
                "childMasksLeft": 15
            }
        },
        {
            "type": "Feature",
            "geometry": {
                "type": "Point",
                "coordinates": [
                    120.754461,
                    23.74511
                ]
            },
            "properties": {
                "id": "2338070010",
                "name": "南投縣鹿谷鄉衛生所",
                "masksLeft": 1030,
                "childMasksLeft": 756
            }
        },
        {
            "type": "Feature",
            "geometry": {
                "type": "Point",
                "coordinates": [
                    120.941201,
                    23.895522
                ]
            },
            "properties": {
                "id": "2338090012",
                "name": "南投縣魚池鄉衛生所",
                "masksLeft": 768,
                "childMasksLeft": 565
            }
        },
        {
            "type": "Feature",
            "geometry": {
                "type": "Point",
                "coordinates": [
                    120.854783,
                    24.037869
                ]
            },
            "properties": {
                "id": "2338100013",
                "name": "南投縣國姓鄉衛生所",
                "masksLeft": 1191,
                "childMasksLeft": 5
            }
        },
        {
            "type": "Feature",
            "geometry": {
                "type": "Point",
                "coordinates": [
                    120.849087,
                    23.810619
                ]
            },
            "properties": {
                "id": "2338110019",
                "name": "南投縣水里鄉衛生所",
                "masksLeft": 4,
                "childMasksLeft": 9
            }
        },
        {
            "type": "Feature",
            "geometry": {
                "type": "Point",
                "coordinates": [
                    120.854671,
                    23.696295
                ]
            },
            "properties": {
                "id": "2338120015",
                "name": "南投縣信義鄉衛生所",
                "masksLeft": 6,
                "childMasksLeft": 6
            }
        },
        {
            "type": "Feature",
            "geometry": {
                "type": "Point",
                "coordinates": [
                    121.134383,
                    24.02429
                ]
            },
            "properties": {
                "id": "2338130011",
                "name": "南投縣仁愛鄉衛生所",
                "masksLeft": 3910,
                "childMasksLeft": 315
            }
        },
        {
            "type": "Feature",
            "geometry": {
                "type": "Point",
                "coordinates": [
                    120.459733,
                    23.802079
                ]
            },
            "properties": {
                "id": "2339040016",
                "name": "雲林縣西螺鎮衛生所",
                "masksLeft": 2356,
                "childMasksLeft": 890
            }
        },
        {
            "type": "Feature",
            "geometry": {
                "type": "Point",
                "coordinates": [
                    120.392608,
                    23.678321
                ]
            },
            "properties": {
                "id": "2339050012",
                "name": "雲林縣土庫鎮衛生所",
                "masksLeft": 1822,
                "childMasksLeft": 611
            }
        },
        {
            "type": "Feature",
            "geometry": {
                "type": "Point",
                "coordinates": [
                    120.302738,
                    23.576381
                ]
            },
            "properties": {
                "id": "2339060018",
                "name": "北港鎮衛生所",
                "masksLeft": 261,
                "childMasksLeft": 285
            }
        },
        {
            "type": "Feature",
            "geometry": {
                "type": "Point",
                "coordinates": [
                    120.559888,
                    23.654139
                ]
            },
            "properties": {
                "id": "2339070014",
                "name": "雲林縣古坑鄉衛生所",
                "masksLeft": 4513,
                "childMasksLeft": 1265
            }
        },
        {
            "type": "Feature",
            "geometry": {
                "type": "Point",
                "coordinates": [
                    120.612532,
                    23.760064
                ]
            },
            "properties": {
                "id": "2339100017",
                "name": "雲林縣林內鄉衛生所",
                "masksLeft": 860,
                "childMasksLeft": 70
            }
        },
        {
            "type": "Feature",
            "geometry": {
                "type": "Point",
                "coordinates": [
                    120.412821,
                    23.771875
                ]
            },
            "properties": {
                "id": "2339110013",
                "name": "雲林縣二崙鄉衛生所",
                "masksLeft": 897,
                "childMasksLeft": 352
            }
        },
        {
            "type": "Feature",
            "geometry": {
                "type": "Point",
                "coordinates": [
                    120.353274,
                    23.759857
                ]
            },
            "properties": {
                "id": "2339120019",
                "name": "雲林縣崙背鄉衛生所",
                "masksLeft": 3359,
                "childMasksLeft": 1118
            }
        },
        {
            "type": "Feature",
            "geometry": {
                "type": "Point",
                "coordinates": [
                    120.255952,
                    23.746931
                ]
            },
            "properties": {
                "id": "2339130015",
                "name": "雲林縣麥寮鄉衛生所",
                "masksLeft": 0,
                "childMasksLeft": 365
            }
        },
        {
            "type": "Feature",
            "geometry": {
                "type": "Point",
                "coordinates": [
                    120.221509,
                    23.637717
                ]
            },
            "properties": {
                "id": "2339180015",
                "name": "雲林縣四湖鄉衛生所",
                "masksLeft": 6891,
                "childMasksLeft": 1522
            }
        },
        {
            "type": "Feature",
            "geometry": {
                "type": "Point",
                "coordinates": [
                    120.246405,
                    23.572562
                ]
            },
            "properties": {
                "id": "2339200012",
                "name": "雲林縣水林鄉衛生所",
                "masksLeft": 5115,
                "childMasksLeft": 1520
            }
        },
        {
            "type": "Feature",
            "geometry": {
                "type": "Point",
                "coordinates": [
                    120.246581,
                    23.465606
                ]
            },
            "properties": {
                "id": "2340010015",
                "name": "嘉義縣朴子市衛生所",
                "masksLeft": 1477,
                "childMasksLeft": 202
            }
        },
        {
            "type": "Feature",
            "geometry": {
                "type": "Point",
                "coordinates": [
                    120.169897,
                    23.381464
                ]
            },
            "properties": {
                "id": "2340020011",
                "name": "嘉義縣布袋鎮衛生所",
                "masksLeft": 454,
                "childMasksLeft": 453
            }
        },
        {
            "type": "Feature",
            "geometry": {
                "type": "Point",
                "coordinates": [
                    120.45576,
                    23.606851
                ]
            },
            "properties": {
                "id": "2340030017",
                "name": "嘉義縣大林鎮衛生所",
                "masksLeft": 900,
                "childMasksLeft": 518
            }
        },
        {
            "type": "Feature",
            "geometry": {
                "type": "Point",
                "coordinates": [
                    120.427479,
                    23.551327
                ]
            },
            "properties": {
                "id": "2340040013",
                "name": "嘉義縣民雄鄉衛生所",
                "masksLeft": 1359,
                "childMasksLeft": 255
            }
        },
        {
            "type": "Feature",
            "geometry": {
                "type": "Point",
                "coordinates": [
                    120.394804,
                    23.606392
                ]
            },
            "properties": {
                "id": "2340050019",
                "name": "嘉義縣溪口鄉衛生所",
                "masksLeft": 4988,
                "childMasksLeft": 1850
            }
        },
        {
            "type": "Feature",
            "geometry": {
                "type": "Point",
                "coordinates": [
                    120.347821,
                    23.552102
                ]
            },
            "properties": {
                "id": "2340060015",
                "name": "嘉義縣新港鄉衛生所",
                "masksLeft": 1152,
                "childMasksLeft": 100
            }
        },
        {
            "type": "Feature",
            "geometry": {
                "type": "Point",
                "coordinates": [
                    120.290494,
                    23.493593
                ]
            },
            "properties": {
                "id": "2340070011",
                "name": "嘉義縣六腳鄉衛生所",
                "masksLeft": 925,
                "childMasksLeft": 100
            }
        },
        {
            "type": "Feature",
            "geometry": {
                "type": "Point",
                "coordinates": [
                    120.153536,
                    23.459202
                ]
            },
            "properties": {
                "id": "2340080017",
                "name": "嘉義縣東石鄉衛生所",
                "masksLeft": 1275,
                "childMasksLeft": 174
            }
        },
        {
            "type": "Feature",
            "geometry": {
                "type": "Point",
                "coordinates": [
                    120.2432,
                    23.337337
                ]
            },
            "properties": {
                "id": "2340090013",
                "name": "嘉義縣義竹鄉衛生所",
                "masksLeft": 99,
                "childMasksLeft": 543
            }
        },
        {
            "type": "Feature",
            "geometry": {
                "type": "Point",
                "coordinates": [
                    120.308528,
                    23.411003
                ]
            },
            "properties": {
                "id": "2340100014",
                "name": "嘉義縣鹿草鄉衛生所",
                "masksLeft": 1286,
                "childMasksLeft": 600
            }
        },
        {
            "type": "Feature",
            "geometry": {
                "type": "Point",
                "coordinates": [
                    120.339469,
                    23.452942
                ]
            },
            "properties": {
                "id": "2340110010",
                "name": "嘉義縣太保市衛生所",
                "masksLeft": 1260,
                "childMasksLeft": 255
            }
        },
        {
            "type": "Feature",
            "geometry": {
                "type": "Point",
                "coordinates": [
                    120.397668,
                    23.428235
                ]
            },
            "properties": {
                "id": "2340120016",
                "name": "嘉義縣水上鄉衛生所",
                "masksLeft": 1225,
                "childMasksLeft": 144
            }
        },
        {
            "type": "Feature",
            "geometry": {
                "type": "Point",
                "coordinates": [
                    120.522754,
                    23.425588
                ]
            },
            "properties": {
                "id": "2340130012",
                "name": "嘉義縣中埔鄉衛生所",
                "masksLeft": 1058,
                "childMasksLeft": 596
            }
        },
        {
            "type": "Feature",
            "geometry": {
                "type": "Point",
                "coordinates": [
                    120.552016,
                    23.521497
                ]
            },
            "properties": {
                "id": "2340140018",
                "name": "嘉義縣竹崎鄉衛生所",
                "masksLeft": 1335,
                "childMasksLeft": 165
            }
        },
        {
            "type": "Feature",
            "geometry": {
                "type": "Point",
                "coordinates": [
                    120.555598,
                    23.586563
                ]
            },
            "properties": {
                "id": "2340150014",
                "name": "嘉義縣梅山鄉衛生所",
                "masksLeft": 411,
                "childMasksLeft": 89
            }
        },
        {
            "type": "Feature",
            "geometry": {
                "type": "Point",
                "coordinates": [
                    120.554014,
                    23.463365
                ]
            },
            "properties": {
                "id": "2340160010",
                "name": "嘉義縣番路鄉衛生所",
                "masksLeft": 1279,
                "childMasksLeft": 284
            }
        },
        {
            "type": "Feature",
            "geometry": {
                "type": "Point",
                "coordinates": [
                    120.593259,
                    23.295282
                ]
            },
            "properties": {
                "id": "2340170016",
                "name": "嘉義縣大埔鄉衛生所",
                "masksLeft": 1506,
                "childMasksLeft": 3
            }
        },
        {
            "type": "Feature",
            "geometry": {
                "type": "Point",
                "coordinates": [
                    120.317409,
                    23.307684
                ]
            },
            "properties": {
                "id": "2341010019",
                "name": "臺南市新營區衛生所",
                "masksLeft": 4841,
                "childMasksLeft": 978
            }
        },
        {
            "type": "Feature",
            "geometry": {
                "type": "Point",
                "coordinates": [
                    120.265343,
                    23.320251
                ]
            },
            "properties": {
                "id": "2341020015",
                "name": "臺南市鹽水區衛生所",
                "masksLeft": 1626,
                "childMasksLeft": 402
            }
        },
        {
            "type": "Feature",
            "geometry": {
                "type": "Point",
                "coordinates": [
                    120.415776,
                    23.352024
                ]
            },
            "properties": {
                "id": "2341030011",
                "name": "臺南市白河區衛生所",
                "masksLeft": 1600,
                "childMasksLeft": 587
            }
        },
        {
            "type": "Feature",
            "geometry": {
                "type": "Point",
                "coordinates": [
                    120.24819,
                    23.182658
                ]
            },
            "properties": {
                "id": "2341040017",
                "name": "臺南市麻豆區衛生所",
                "masksLeft": 10,
                "childMasksLeft": 144
            }
        },
        {
            "type": "Feature",
            "geometry": {
                "type": "Point",
                "coordinates": [
                    120.177884,
                    23.163861
                ]
            },
            "properties": {
                "id": "2341050013",
                "name": "臺南市佳里區衛生所",
                "masksLeft": 4142,
                "childMasksLeft": 539
            }
        },
        {
            "type": "Feature",
            "geometry": {
                "type": "Point",
                "coordinates": [
                    120.304797,
                    23.034468
                ]
            },
            "properties": {
                "id": "2341060019",
                "name": "臺南市新化區衛生所",
                "masksLeft": 84,
                "childMasksLeft": 619
            }
        },
        {
            "type": "Feature",
            "geometry": {
                "type": "Point",
                "coordinates": [
                    120.299933,
                    23.132732
                ]
            },
            "properties": {
                "id": "2341070015",
                "name": "臺南市善化區衛生所",
                "masksLeft": 428,
                "childMasksLeft": 9
            }
        },
        {
            "type": "Feature",
            "geometry": {
                "type": "Point",
                "coordinates": [
                    120.181909,
                    23.230303
                ]
            },
            "properties": {
                "id": "2341080011",
                "name": "臺南市學甲區衛生所",
                "masksLeft": 393,
                "childMasksLeft": 0
            }
        },
        {
            "type": "Feature",
            "geometry": {
                "type": "Point",
                "coordinates": [
                    120.310799,
                    23.278672
                ]
            },
            "properties": {
                "id": "2341090017",
                "name": "臺南市柳營區衛生所",
                "masksLeft": 6397,
                "childMasksLeft": 1199
            }
        },
        {
            "type": "Feature",
            "geometry": {
                "type": "Point",
                "coordinates": [
                    120.362239,
                    23.365529
                ]
            },
            "properties": {
                "id": "2341100018",
                "name": "臺南市後壁區衛生所",
                "masksLeft": 4131,
                "childMasksLeft": 1297
            }
        },
        {
            "type": "Feature",
            "geometry": {
                "type": "Point",
                "coordinates": [
                    120.404782,
                    23.326204
                ]
            },
            "properties": {
                "id": "2341110014",
                "name": "臺南市東山區衛生所",
                "masksLeft": 2110,
                "childMasksLeft": 786
            }
        },
        {
            "type": "Feature",
            "geometry": {
                "type": "Point",
                "coordinates": [
                    120.262349,
                    23.231578
                ]
            },
            "properties": {
                "id": "2341120010",
                "name": "臺南市下營區衛生所",
                "masksLeft": 5745,
                "childMasksLeft": 1385
            }
        },
        {
            "type": "Feature",
            "geometry": {
                "type": "Point",
                "coordinates": [
                    120.346997,
                    23.224687
                ]
            },
            "properties": {
                "id": "2341130016",
                "name": "台南市六甲區衛生所",
                "masksLeft": 4002,
                "childMasksLeft": 1252
            }
        },
        {
            "type": "Feature",
            "geometry": {
                "type": "Point",
                "coordinates": [
                    120.316117,
                    23.193043
                ]
            },
            "properties": {
                "id": "2341140012",
                "name": "臺南市官田區衛生所",
                "masksLeft": 1121,
                "childMasksLeft": 75
            }
        },
        {
            "type": "Feature",
            "geometry": {
                "type": "Point",
                "coordinates": [
                    120.357073,
                    23.11932
                ]
            },
            "properties": {
                "id": "2341150018",
                "name": "臺南市大內區衛生所",
                "masksLeft": 288,
                "childMasksLeft": 381
            }
        },
        {
            "type": "Feature",
            "geometry": {
                "type": "Point",
                "coordinates": [
                    120.203352,
                    23.123486
                ]
            },
            "properties": {
                "id": "2341160014",
                "name": "臺南市西港區衛生所",
                "masksLeft": 0,
                "childMasksLeft": 279
            }
        },
        {
            "type": "Feature",
            "geometry": {
                "type": "Point",
                "coordinates": [
                    120.138716,
                    23.140225
                ]
            },
            "properties": {
                "id": "2341170010",
                "name": "臺南市七股區衛生所",
                "masksLeft": 1590,
                "childMasksLeft": 255
            }
        },
        {
            "type": "Feature",
            "geometry": {
                "type": "Point",
                "coordinates": [
                    120.158551,
                    23.201402
                ]
            },
            "properties": {
                "id": "2341180016",
                "name": "臺南市將軍區衛生所",
                "masksLeft": 1019,
                "childMasksLeft": 86
            }
        },
        {
            "type": "Feature",
            "geometry": {
                "type": "Point",
                "coordinates": [
                    120.125197,
                    23.270302
                ]
            },
            "properties": {
                "id": "2341190012",
                "name": "臺南市北門區衛生所",
                "masksLeft": 715,
                "childMasksLeft": 190
            }
        },
        {
            "type": "Feature",
            "geometry": {
                "type": "Point",
                "coordinates": [
                    120.295157,
                    23.078908
                ]
            },
            "properties": {
                "id": "2341200013",
                "name": "台南市新市區衛生所",
                "masksLeft": 702,
                "childMasksLeft": 520
            }
        },
        {
            "type": "Feature",
            "geometry": {
                "type": "Point",
                "coordinates": [
                    120.237415,
                    23.121419
                ]
            },
            "properties": {
                "id": "2341210019",
                "name": "臺南市安定區衛生所",
                "masksLeft": 1350,
                "childMasksLeft": 150
            }
        },
        {
            "type": "Feature",
            "geometry": {
                "type": "Point",
                "coordinates": [
                    120.358188,
                    23.098562
                ]
            },
            "properties": {
                "id": "2341220015",
                "name": "臺南市山上區衛生所",
                "masksLeft": 1398,
                "childMasksLeft": 491
            }
        },
        {
            "type": "Feature",
            "geometry": {
                "type": "Point",
                "coordinates": [
                    120.459374,
                    23.122277
                ]
            },
            "properties": {
                "id": "2341230011",
                "name": "臺南市玉井區衛生所",
                "masksLeft": 2576,
                "childMasksLeft": 1453
            }
        },
        {
            "type": "Feature",
            "geometry": {
                "type": "Point",
                "coordinates": [
                    120.486395,
                    23.174437
                ]
            },
            "properties": {
                "id": "2341240017",
                "name": "臺南市楠西區衛生所",
                "masksLeft": 2432,
                "childMasksLeft": 950
            }
        },
        {
            "type": "Feature",
            "geometry": {
                "type": "Point",
                "coordinates": [
                    120.47931,
                    23.044542
                ]
            },
            "properties": {
                "id": "2341250013",
                "name": "台南市南化區衛生所",
                "masksLeft": 3596,
                "childMasksLeft": 106
            }
        },
        {
            "type": "Feature",
            "geometry": {
                "type": "Point",
                "coordinates": [
                    120.408886,
                    23.056814
                ]
            },
            "properties": {
                "id": "2341260019",
                "name": "臺南市左鎮區衛生所",
                "masksLeft": 2673,
                "childMasksLeft": 1380
            }
        },
        {
            "type": "Feature",
            "geometry": {
                "type": "Point",
                "coordinates": [
                    120.251501,
                    22.972776
                ]
            },
            "properties": {
                "id": "2341270015",
                "name": "台南市仁德區衛生所",
                "masksLeft": 555,
                "childMasksLeft": 351
            }
        },
        {
            "type": "Feature",
            "geometry": {
                "type": "Point",
                "coordinates": [
                    120.29432,
                    22.967743
                ]
            },
            "properties": {
                "id": "2341280011",
                "name": "台南市歸仁區衛生所",
                "masksLeft": 4120,
                "childMasksLeft": 635
            }
        },
        {
            "type": "Feature",
            "geometry": {
                "type": "Point",
                "coordinates": [
                    120.327192,
                    22.9629
                ]
            },
            "properties": {
                "id": "2341290017",
                "name": "台南市關廟區衛生所",
                "masksLeft": 1364,
                "childMasksLeft": 416
            }
        },
        {
            "type": "Feature",
            "geometry": {
                "type": "Point",
                "coordinates": [
                    120.361937,
                    22.965252
                ]
            },
            "properties": {
                "id": "2341300018",
                "name": "臺南市龍崎區衛生所",
                "masksLeft": 2,
                "childMasksLeft": 162
            }
        },
        {
            "type": "Feature",
            "geometry": {
                "type": "Point",
                "coordinates": [
                    120.26125,
                    23.016518
                ]
            },
            "properties": {
                "id": "2341310014",
                "name": "臺南市永康區衛生所",
                "masksLeft": 72,
                "childMasksLeft": 585
            }
        },
        {
            "type": "Feature",
            "geometry": {
                "type": "Point",
                "coordinates": [
                    120.362628,
                    22.627258
                ]
            },
            "properties": {
                "id": "2342010013",
                "name": "高雄市鳳山區衛生所",
                "masksLeft": 131,
                "childMasksLeft": 93
            }
        },
        {
            "type": "Feature",
            "geometry": {
                "type": "Point",
                "coordinates": [
                    120.291108,
                    22.796206
                ]
            },
            "properties": {
                "id": "2342020019",
                "name": "高雄市岡山區衛生所",
                "masksLeft": 1461,
                "childMasksLeft": 309
            }
        },
        {
            "type": "Feature",
            "geometry": {
                "type": "Point",
                "coordinates": [
                    120.479968,
                    22.890068
                ]
            },
            "properties": {
                "id": "2342030015",
                "name": "高雄市旗山區衛生所",
                "masksLeft": 2805,
                "childMasksLeft": 606
            }
        },
        {
            "type": "Feature",
            "geometry": {
                "type": "Point",
                "coordinates": [
                    120.541864,
                    22.894779
                ]
            },
            "properties": {
                "id": "2342040011",
                "name": "高雄市美濃區衛生所",
                "masksLeft": 1324,
                "childMasksLeft": 765
            }
        },
        {
            "type": "Feature",
            "geometry": {
                "type": "Point",
                "coordinates": [
                    120.395229,
                    22.507653
                ]
            },
            "properties": {
                "id": "2342050017",
                "name": "高雄市林園區衛生所",
                "masksLeft": 936,
                "childMasksLeft": 156
            }
        },
        {
            "type": "Feature",
            "geometry": {
                "type": "Point",
                "coordinates": [
                    120.393517,
                    22.604413
                ]
            },
            "properties": {
                "id": "2342060013",
                "name": "高雄市大寮區衛生所",
                "masksLeft": 1,
                "childMasksLeft": 0
            }
        },
        {
            "type": "Feature",
            "geometry": {
                "type": "Point",
                "coordinates": [
                    120.413894,
                    22.684035
                ]
            },
            "properties": {
                "id": "2342070019",
                "name": "高雄市大樹區衛生所",
                "masksLeft": 2,
                "childMasksLeft": 360
            }
        },
        {
            "type": "Feature",
            "geometry": {
                "type": "Point",
                "coordinates": [
                    120.36264,
                    22.663132
                ]
            },
            "properties": {
                "id": "2342100012",
                "name": "高雄市鳥松區衛生所",
                "masksLeft": 0,
                "childMasksLeft": 55
            }
        },
        {
            "type": "Feature",
            "geometry": {
                "type": "Point",
                "coordinates": [
                    120.305502,
                    22.757299
                ]
            },
            "properties": {
                "id": "2342110018",
                "name": "高雄市橋頭區衛生所",
                "masksLeft": 1380,
                "childMasksLeft": 415
            }
        },
        {
            "type": "Feature",
            "geometry": {
                "type": "Point",
                "coordinates": [
                    120.361632,
                    22.793136
                ]
            },
            "properties": {
                "id": "2342120014",
                "name": "高雄市燕巢區衛生所",
                "masksLeft": 6,
                "childMasksLeft": 5
            }
        },
        {
            "type": "Feature",
            "geometry": {
                "type": "Point",
                "coordinates": [
                    120.32747,
                    22.882891
                ]
            },
            "properties": {
                "id": "2342140016",
                "name": "高雄市阿蓮區衛生所",
                "masksLeft": 23,
                "childMasksLeft": 413
            }
        },
        {
            "type": "Feature",
            "geometry": {
                "type": "Point",
                "coordinates": [
                    120.258962,
                    22.855287
                ]
            },
            "properties": {
                "id": "2342150012",
                "name": "高雄市路竹區衛生所",
                "masksLeft": 1377,
                "childMasksLeft": 330
            }
        },
        {
            "type": "Feature",
            "geometry": {
                "type": "Point",
                "coordinates": [
                    120.222364,
                    22.905287
                ]
            },
            "properties": {
                "id": "2342160018",
                "name": "高雄市湖內區衛生所",
                "masksLeft": 1078,
                "childMasksLeft": 353
            }
        },
        {
            "type": "Feature",
            "geometry": {
                "type": "Point",
                "coordinates": [
                    120.185223,
                    22.887925
                ]
            },
            "properties": {
                "id": "2342170014",
                "name": "高雄市茄萣區衛生所",
                "masksLeft": 27,
                "childMasksLeft": 199
            }
        },
        {
            "type": "Feature",
            "geometry": {
                "type": "Point",
                "coordinates": [
                    120.225411,
                    22.818702
                ]
            },
            "properties": {
                "id": "2342180010",
                "name": "高雄市永安區衛生所",
                "masksLeft": 3,
                "childMasksLeft": 9
            }
        },
        {
            "type": "Feature",
            "geometry": {
                "type": "Point",
                "coordinates": [
                    120.250597,
                    22.78215
                ]
            },
            "properties": {
                "id": "2342190016",
                "name": "高雄市彌陀區衛生所",
                "masksLeft": 3,
                "childMasksLeft": 88
            }
        },
        {
            "type": "Feature",
            "geometry": {
                "type": "Point",
                "coordinates": [
                    120.633289,
                    22.998588
                ]
            },
            "properties": {
                "id": "2342210013",
                "name": "高雄市六龜區衛生所",
                "masksLeft": 2622,
                "childMasksLeft": 1453
            }
        },
        {
            "type": "Feature",
            "geometry": {
                "type": "Point",
                "coordinates": [
                    120.587473,
                    23.083841
                ]
            },
            "properties": {
                "id": "2342220019",
                "name": "高雄市甲仙區衛生所",
                "masksLeft": 6421,
                "childMasksLeft": 2860
            }
        },
        {
            "type": "Feature",
            "geometry": {
                "type": "Point",
                "coordinates": [
                    120.541458,
                    22.974983
                ]
            },
            "properties": {
                "id": "2342230015",
                "name": "高雄市杉林區衛生所",
                "masksLeft": 8,
                "childMasksLeft": 2
            }
        },
        {
            "type": "Feature",
            "geometry": {
                "type": "Point",
                "coordinates": [
                    120.453815,
                    22.924435
                ]
            },
            "properties": {
                "id": "2342240011",
                "name": "高雄市內門區衛生所",
                "masksLeft": 549,
                "childMasksLeft": 620
            }
        },
        {
            "type": "Feature",
            "geometry": {
                "type": "Point",
                "coordinates": [
                    120.664085,
                    22.886405
                ]
            },
            "properties": {
                "id": "2342250017",
                "name": "高雄市茂林區衛生所",
                "masksLeft": 3856,
                "childMasksLeft": 769
            }
        },
        {
            "type": "Feature",
            "geometry": {
                "type": "Point",
                "coordinates": [
                    120.764611,
                    23.158815
                ]
            },
            "properties": {
                "id": "2342260013",
                "name": "高雄市桃源區衛生所",
                "masksLeft": 5936,
                "childMasksLeft": 148
            }
        },
        {
            "type": "Feature",
            "geometry": {
                "type": "Point",
                "coordinates": [
                    120.702287,
                    23.246947
                ]
            },
            "properties": {
                "id": "2342270019",
                "name": "高雄市那瑪夏區衛生所",
                "masksLeft": 3776,
                "childMasksLeft": 627
            }
        },
        {
            "type": "Feature",
            "geometry": {
                "type": "Point",
                "coordinates": [
                    120.482463,
                    22.665144
                ]
            },
            "properties": {
                "id": "2343010017",
                "name": "屏東縣屏東市衛生所",
                "masksLeft": 4,
                "childMasksLeft": 5
            }
        },
        {
            "type": "Feature",
            "geometry": {
                "type": "Point",
                "coordinates": [
                    120.542224,
                    22.553152
                ]
            },
            "properties": {
                "id": "2343020013",
                "name": "屏東縣潮州鎮衛生所",
                "masksLeft": 0,
                "childMasksLeft": 252
            }
        },
        {
            "type": "Feature",
            "geometry": {
                "type": "Point",
                "coordinates": [
                    120.446191,
                    22.467119
                ]
            },
            "properties": {
                "id": "2343030019",
                "name": "屏東縣東港鎮衛生所",
                "masksLeft": 1150,
                "childMasksLeft": 146
            }
        },
        {
            "type": "Feature",
            "geometry": {
                "type": "Point",
                "coordinates": [
                    120.488608,
                    22.594991
                ]
            },
            "properties": {
                "id": "2343050011",
                "name": "屏東縣萬丹鄉衛生所",
                "masksLeft": 0,
                "childMasksLeft": 5
            }
        },
        {
            "type": "Feature",
            "geometry": {
                "type": "Point",
                "coordinates": [
                    120.526818,
                    22.676652
                ]
            },
            "properties": {
                "id": "2343060017",
                "name": "屏東縣長治鄉衛生所",
                "masksLeft": 1,
                "childMasksLeft": 4
            }
        },
        {
            "type": "Feature",
            "geometry": {
                "type": "Point",
                "coordinates": [
                    120.527482,
                    22.651024
                ]
            },
            "properties": {
                "id": "2343070013",
                "name": "屏東縣麟洛鄉衛生所",
                "masksLeft": 2,
                "childMasksLeft": 502
            }
        },